[
  {
    "name": "Acomb",
    "lat": 54.98919,
    "lng": -2.1064,
    "url": "http://www.windmillworld.com/millid/1324.htm",
    "location": "Acomb",
    "type": "tower mill",
    "condition": null
  },
  {
    "name": "Castle Mill",
    "lat": 55.61006,
    "lng": -1.7127,
    "url": "http://www.windmillworld.com/millid/1313.htm",
    "location": "Bamburgh",
    "type": "tower mill",
    "condition": null
  },
  {
    "name": "Spindlestone Ducket Mill",
    "lat": 55.59462,
    "lng": -1.7685,
    "url": "http://www.windmillworld.com/millid/1312.htm",
    "location": "Belford",
    "type": "tower mill",
    "condition": null
  },
  {
    "name": "Chollerton Farm",
    "lat": 55.04275,
    "lng": -2.106,
    "url": "http://www.windmillworld.com/millid/1325.htm",
    "location": "Chollerton",
    "type": "tower mill",
    "condition": null
  },
  {
    "name": "Great Whittington",
    "lat": 55.02828,
    "lng": -1.9819,
    "url": "http://www.windmillworld.com/millid/1326.htm",
    "location": "Great Whittington",
    "type": "tower mill",
    "condition": null
  },
  {
    "name": "Haggerston",
    "lat": 55.68577,
    "lng": -1.9456,
    "url": "http://www.windmillworld.com/millid/1308.htm",
    "location": "Haggerston",
    "type": "tower mill",
    "condition": null
  },
  {
    "name": "Dipton Mill",
    "lat": 54.94262,
    "lng": -2.1169,
    "url": "http://www.windmillworld.com/millid/1323.htm",
    "location": "Hexham",
    "type": "tower mill",
    "condition": null
  },
  {
    "name": "High Callerton",
    "lat": 55.02106,
    "lng": -1.7718,
    "url": "http://www.windmillworld.com/millid/1329.htm",
    "location": "High Callerton",
    "type": "tower mill",
    "condition": null
  },
  {
    "name": "Plessey Mill",
    "lat": 55.10366,
    "lng": -1.6283,
    "url": "http://www.windmillworld.com/millid/1342.htm",
    "location": "Stannington",
    "type": "tower mill",
    "condition": null
  },
  {
    "name": "Woodhorn",
    "lat": 55.19633,
    "lng": -1.5323,
    "url": "http://www.windmillworld.com/millid/1369.htm",
    "location": "Woodhorn",
    "type": "tower mill",
    "condition": null
  }
]
